[
  {"location": "New York, USA", "latitude": 40.7128, "longitude": -74.0060},
  {"location": "Los Angeles, USA", "latitude": 34.0522, "longitude": -118.2437},
  {"location": "Shanghai, China", "latitude": 31.2304, "longitude": 121.4737},
  {"location": "Singapore, Singapore", "latitude": 1.3521, "longitude": 103.8198},
  {"location": "Rotterdam, Netherlands", "latitude": 51.9225, "longitude": 4.47917},
  {"location": "Dubai, UAE", "latitude": 25.276987, "longitude": 55.296249},
  {"location": "Hamburg, Germany", "latitude": 53.5511, "longitude": 9.9937},
  {"location": "Tokyo, Japan", "latitude": 35.6762, "longitude": 139.6503},
  {"location": "Mumbai, India", "latitude": 19.0760, "longitude": 72.8777},
  {"location": "London, UK", "latitude": 51.5074, "longitude": -0.1278},
  {"location": "Los Angeles, USA", "latitude": 34.0522, "longitude": -118.2437},
  {"location": "Sydney, Australia", "latitude": -33.8688, "longitude": 151.2093},
  {"location": "Hong Kong, China", "latitude": 22.3193, "longitude": 114.1694},
  {"location": "Cairo, Egypt", "latitude": 30.0444, "longitude": 31.2357},
  {"location": "Bangkok, Thailand", "latitude": 13.7563, "longitude": 100.5018},
  {"location": "Paris, France", "latitude": 48.8566, "longitude": 2.3522},
  {"location": "Berlin, Germany", "latitude": 52.5200, "longitude": 13.4050},
  {"location": "Rome, Italy", "latitude": 41.9028, "longitude": 12.4964},
  {"location": "Barcelona, Spain", "latitude": 41.3784, "longitude": 2.1928},
  {"location": "Istanbul, Turkey", "latitude": 41.0082, "longitude": 28.9784},
  {"location": "Lagos, Nigeria", "latitude": 6.5244, "longitude": 3.3792},
  {"location": "Rio de Janeiro, Brazil", "latitude": -22.9068, "longitude": -43.1729},
  {"location": "Cape Town, South Africa", "latitude": -33.9249, "longitude": 18.4241},
  {"location": "Seoul, South Korea", "latitude": 37.5665, "longitude": 126.9780},
  {"location": "Kuala Lumpur, Malaysia", "latitude": 3.1390, "longitude": 101.6869},
  {"location": "Mumbai, India", "latitude": 19.0760, "longitude": 72.8777},
  {"location": "São Paulo, Brazil", "latitude": -23.5505, "longitude": -46.6333},
  {"location": "Jakarta, Indonesia", "latitude": -6.2088, "longitude": 106.8456},
  {"location": "Mexico City, Mexico", "latitude": 19.4326, "longitude": -99.1332},
  {"location": "Cape Town, South Africa", "latitude": -33.9249, "longitude": 18.4241},
  {"location": "Lagos, Nigeria", "latitude": 6.5244, "longitude": 3.3792},
  {"location": "Dhaka, Bangladesh", "latitude": 23.8103, "longitude": 90.4125},
  {"location": "Manila, Philippines", "latitude": 14.5995, "longitude": 120.9842},
  {"location": "Buenos Aires, Argentina", "latitude": -34.6037, "longitude": -58.3816},
  {"location": "Santiago, Chile", "latitude": -33.4489, "longitude": -70.6693},
  {"location": "Lima, Peru", "latitude": -12.0464, "longitude": -77.0428},
  {"location": "Caracas, Venezuela", "latitude": 10.4806, "longitude": -66.9036},
  {"location": "Toronto, Canada", "latitude": 43.65107, "longitude": -79.347015},
  {"location": "Los Angeles, USA", "latitude": 34.0522, "longitude": -118.2437},
  {"location": "London, UK", "latitude": 51.5074, "longitude": -0.1278},
  {"location": "São Paulo, Brazil", "latitude": -23.5505, "longitude": -46.6333},
  {"location": "Istanbul, Turkey", "latitude": 41.0082, "longitude": 28.9784},
  {"location": "Paris, France", "latitude": 48.8566, "longitude": 2.3522},
  {"location": "Berlin, Germany", "latitude": 52.5200, "longitude": 13.4050},
  {"location": "Singapore, Singapore", "latitude": 1.3521, "longitude": 103.8198},
  {"location": "Bangkok, Thailand", "latitude": 13.7563, "longitude": 100.5018},
  {"location": "Seoul, South Korea", "latitude": 37.5665, "longitude": 126.9780},
  {"location": "Mumbai, India", "latitude": 19.0760, "longitude": 72.8777},
  {"location": "Cairo, Egypt", "latitude": 30.0444, "longitude": 31.2357},
  {"location": "Tokyo, Japan", "latitude": 35.6762, "longitude": 139.6503},
  {"location": "Sydney, Australia", "latitude": -33.8688, "longitude": 151.2093},
  {"location": "Berlin, Germany", "latitude": 52.5200, "longitude": 13.4050},
  {"location": "Cape Town, South Africa", "latitude": -33.9249, "longitude": 18.4241},
  {"location": "Lagos, Nigeria", "latitude": 6.5244, "longitude": 3.3792},
  {"location": "Lima, Peru", "latitude": -12.0464, "longitude": -77.0428},
  {"location": "Dhaka, Bangladesh", "latitude": 23.8103, "longitude": 90.4125},
  {"location": "Mexico City, Mexico", "latitude": 19.4326, "longitude": -99.1332},
  {"location": "Toronto, Canada", "latitude": 43.65107, "longitude": -79.347015},
  {"location": "Lagos, Nigeria", "latitude": 6.5244, "longitude": 3.3792},
  {"location": "Mumbai, India", "latitude": 19.0760, "longitude": 72.8777},
  {"location": "London, UK", "latitude": 51.5074, "longitude": -0.1278},
  {"location": "Seoul, South Korea", "latitude": 37.5665, "longitude": 126.9780},
  {"location": "New York, USA", "latitude": 40.7128, "longitude": -74.0060},
  {"location": "Hong Kong, China", "latitude": 22.3193, "longitude": 114.1694},
  {"location": "Paris, France", "latitude": 48.8566, "longitude": 2.3522},
  {"location": "Rio de Janeiro, Brazil", "latitude": -22.9068, "longitude": -43.1729},
  {"location": "Jakarta, Indonesia", "latitude": -6.2088, "longitude": 106.8456},
  {"location": "Rome, Italy", "latitude": 41.9028, "longitude": 12.4964},
  {"location": "Mexico City, Mexico", "latitude": 19.4326, "longitude": -99.1332},
  {"location": "Buenos Aires, Argentina", "latitude": -34.6037, "longitude": -58.3816},
  {"location": "Santiago, Chile", "latitude": -33.4489, "longitude": -70.6693},
  {"location": "Bangkok, Thailand", "latitude": 13.7563, "longitude": 100.5018},
  {"location": "Istanbul, Turkey", "latitude": 41.0082, "longitude": 28.9784},
  {"location": "Shanghai, China", "latitude": 31.2304, "longitude": 121.4737},
  {"location": "Tokyo, Japan", "latitude": 35.6762, "longitude": 139.6503}
]
